name,area,description,detail,image_url,image_urls,lat,lon,tags,is_indoor,weather_ok,price,opening_hours,weather_sutability,highlights
山崎川,sakurayama,名古屋を代表する桜の名所。川沿いをのんびり歩きながら、四季の自然を楽しめる散策スポット。,山崎川は、名古屋市瑞穂区を流れる自然豊かな川で、特に春には桜並木が続く人気の散策スポットとして知られているよ。ジョギングや散歩、写真撮影など、思い思いの過ごし方ができる！周辺は落ち着いた住宅街で、都会にいながらも静かでリラックスした時間を過ごせるのが魅力です。気分転換や軽い運動にもぴったりな場所です。,/sakurayama/s1-1.png,"/sakurayama/s1-1.png,/sakurayama/s1-2.png,/sakurayama/s1-3.png",35.12980911,136.9435584,photo,FALSE,FALSE,無料,なし,晴れ：川沿いの桜や緑をゆっくり楽しめるベストコンディション｜くもり：風景が柔らかく写真も撮りやすく、歩きやすい天気｜雨：足元が滑りやすくなりやすいため、傘やレインウェア必須,"四季を感じられる散策路,写真映えする川沿い風景"
ぶた　いながき,sakurayama,すごくおすすめのトンカツ専門店。和風空間で、しっかり食べたい日に！,ぶた いながきは、桜山エリアにあるトンカツ専門店。落ち着いた雰囲気で、ゆっくり食事を楽しめるのが特徴。定食やしっかりめの料理が多く、散策のあとや、ちゃんとごはんを食べたい日に向いているよ。ひとりでも入りやすく、友達や落ち着いたデートにも使いやすいお店。,/sakurayama/s2-1.png,"/sakurayama/s2-1.png,/sakurayama/s2-2.png,/sakurayama/s2-3.png",35.139936,136.930016,food,FALSE,FALSE,2000円-3000円,11:30-14:30/18:00-20:30,晴れ：散策や外出のついでに立ち寄りやすい｜くもり：落ち着いて食事を楽しめる｜雨：屋内なので天気を気にせず利用できる,"絶対美味しいトンカツをしっかり楽しめる,落ち着いた雰囲気で入りやすい"
桜山商店街,sakurayama,昔ながらの雰囲気が残る、地元に愛されるあたたかい商店,桜山商店街は、名古屋市瑞穂区にある地域密着型の商店街で、昔ながらの個人店と新しいお店が程よく混ざった、落ち着いた雰囲気が魅力のエリアだよ。飲食店や惣菜屋、カフェでひと休みしたり、気軽に立ち寄れるお出かけスポット。,/sakurayama/s3-1.png,"/sakurayama/s3-1.png,/sakurayama/s3-2.png",35.1326,136.9339,alone,FALSE,FALSE,無料,なし,晴れ：商店街をゆっくり歩きながらお店を見て回れる｜くもり：暑さや日差しが和らぎ、散策しやすい｜雨：屋根付きのアーケードや近くのカフェで休憩しやすい,"地元感のある雰囲気,気軽に立ち寄れる飲食店"
名古屋市博物館,sakurayama,名古屋の歴史や文化を学べる博物館。落ち着いた空間で、ゆっくり展示を楽しめる。,名古屋市博物館は、名古屋市瑞穂区にある 歴史系博物館。尾張地域の歴史や文化をテーマに、旧石器時代から近代までの資料を展示しているよ。常設展では「尾張の歴史」をわかりやすく紹介し、企画展や特別展も随時開催されている落ち着いた展示構成で、歴史好きはもちろん、初めての人でも楽しみやすい施設。,/sakurayama/s4-1.png,"/sakurayama/s4-1.png,/sakurayama/s4-2.png,/sakurayama/s4-3.png",35.136388,136.934885,date,TRUE,TRUE,一般300円 高大生200円,9:30-17:00,晴れ：落ち着いた環境で展示をじっくり楽しめる｜くもり：天気を気にせず快適に見て回れる｜雨：屋内施設なので安心して過ごせる,"名古屋の歴史や文化を知れる,静かで落ち着いた雰囲気"
キムラ　カフェ,sakurayama,自家製マフィンとスコーンが人気のこぢんまりカフェ。居心地よくて、散策の休憩にもぴったり。,アットホームで居心地のいいカフェ。お店は“友達の家に遊びに来たような気持ちで過ごしてほしい”というコンセプトで、毎朝焼き上げる マフィンやスコーン、焼き菓子と香り高いコーヒー が人気のスポットだよ。焼きたてのマフィンは日替わりで種類が変わり、ドリンクメニューも充実しているから、モーニング・ティータイム・ランチの休憩どれにも使いやすいよ。,/sakurayama/s5-1.png,"/sakurayama/s5-1.png,/sakurayama/s5-2.png,/sakurayama/s5-3.png",35.1218,136.9782,cafe,TRUE,TRUE,1000円-2000円,9:00-18:00/月定休日,晴れ：散策の合間に立ち寄りやすく、カフェタイムにちょうどいい｜くもり：落ち着いた雰囲気でゆっくり過ごせる｜雨：屋内で静かに過ごせるため、雨の日にも向いている,"自家製マフィンやスコーンが楽しめる,落ち着いた雰囲気でひとりでも入りやすい"
セルフカフェ　桜山店,sakurayama,無人で気軽に使える、作業や勉強にぴったりなセルフカフェ。,セルフカフェ 桜山店は、無人・セルフスタイルで利用できるカフェ。入退店や支払いがシンプルで、勉強や作業に集中したい人に人気があるよ。店内は落ち着いた雰囲気で、一人でも入りやすく、長時間の利用もしやすいのが特徴だよ。,/sakurayama/s6-1.png,"/sakurayama/s6-1.png,/sakurayama/s6-2.png",35.1329,136.9345,study,TRUE,TRUE,1-1000円,5:00-28:00,晴れ：散策の合間の休憩にちょうどいい｜くもり：ゆっくり過ごせて快適｜雨：屋内で安心して利用できる,"一人でも入りやすい,作業や勉強に集中できる"
KISO,sakurayama,焼きたてパンとコーヒーが楽しめるベーカリー。朝や散策途中の立ち寄りにちょうどいい,KISOは、桜山エリアにあるパンとコーヒーが楽しめるベーカリー。店内には食事系から甘いパンまで並び、焼きたての香りが広がるよ。スペシャリティコーヒーと一緒にパンを楽しめるのも魅力で、朝のモーニングや、散策途中の軽めの食事にも使いやすい。,/sakurayama/s7-1.png,"/sakurayama/s7-1.png,/sakurayama/s7-2.png,/sakurayama/s7-3.png",35.1401,35.1401,food,TRUE,TRUE,1000円-2000円,8:00-16:00/火水定休日,晴れ：朝〜昼の散策ついでに立ち寄りやすいパンとコーヒーのスポット｜くもり：屋内でゆっくりパンとスペシャリティコーヒーが楽しめる｜雨：雨宿りしながら店内で焼きたてパンを味わえる,"スペシャリティコーヒーと多彩なパンが楽しめる,朝8時〜営業でモーニングにも使いやすい"