name,area,description,detail,image_url,image_urls,lat,lon,tags,is_indoor,weather_ok,price,opening_hours,weather_sutability,highlights
興正寺,yagoto,八事らしい静けさを感じられるお寺。人が少なく、ゆっくり参拝できる。,興正寺は、八事を代表する歴史あるお寺。五重塔が印象的で、境内は広く、静かで落ち着いた雰囲気が広がっているよ。観光地らしいにぎやかさは少なく、ゆっくり歩きながら参拝できるのが魅力で、散策デートや、心を落ち着かせたいときに立ち寄りやすいスポット。,/yagoto/y1-1.png,"/yagoto/y1-1.png,/yagoto/y1-2.png",35.1336,136.9693,slow,FALSE,FALSE,無料（普門園のみ500円）,8:00-17:00,"晴れ：境内をゆっくり散策できておすすめ|曇り：静かに参拝しやすい,雨：屋外中心のため短時間向き","五重塔がきれい,落ち着いた雰囲気"
イオン八事,yagoto,駅直結で便利なショッピングモール。買い物やごはんを気軽に楽しめる。,イオン八事は、地下鉄八事駅に直結したショッピングモール。買い物や食事、休憩までまとめてできる、使い勝手のいいスポットで、雨の日や暑い日でも利用しやすく、八事エリアでの予定に組み込みやすいよ。散策の前後や、迷ったときの安定した選択肢として便利。,/yagoto/y2-1.png,"/yagoto/y2-1.png,/yagoto/y2-2.png,/yagoto/y2-3.png",35.1371,136.9689,active,TRUE,TRUE,なし,9:00-16:30,晴れ：買い物や食事に便利|曇り：天気を気にせず利用できる|雨：屋内施設なので安心,"駅直結で便利,雨の日でも使いやすい"
やごとのだんごやさん,yagoto,素朴なだんごが楽しめる和菓子店。散歩の途中に立ち寄りやすい。,八事のだんごやは、素朴な和菓子が楽しめるローカルなお店。派手さはないけれど、散歩の途中に立ち寄りたくなる雰囲気があ流よ。食べ歩きや軽い休憩にも使いやすく、八事らしい街の空気を感じられて、散策コースに組み込みやすいスポット。,/yagoto/y3-1.png,"/yagoto/y3-1.png,/yagoto/y3-2.png,",35.1339,136.9686,food,TRUE,TRUE,1〜1000円,9:00-16:00/木定休日,晴れ：散歩しながら立ち寄りやすい|曇り；食べ歩きにちょうどいい|雨：屋外利用が中心で不向き,"素朴な和菓子,散策途中に立ち寄れる"
天白・八事の川とみどりを巡る,yagoto,川沿いと緑を楽しめる散策ルート。自然を感じながら、ゆっくり歩ける。,天白・八事エリアには、川沿いや緑の多い散策ルートが点在しているよ。自然を感じながら歩けるコースで、季節ごとの景色を楽しめる！長時間歩かなくても雰囲気を味わえるため、軽い散歩にも向いているよ。人混みを避けて、静かに過ごしたい日におすすめ。,/yagoto/y4-1.png,"/yagoto/y4-1.png,/yagoto/y4-2.png,/yagoto/y4-3.png",35.1324,136.9635,relax,FALSE,FALSE,無料,なし,"晴れ；自然を感じながら歩ける|曇り：暑さが和らぎ歩きやすい,|雨：足元が悪くなりやすい","川沿いと緑が多い,静かな散策向き"
南山大学人類学博物館,yagoto,人類や文化を学べる静かな博物館。落ち着いた大人のデートにも向いている。,南山大学人類学博物館は、人類や文化について学べる静かな博物館。展示は落ち着いた構成で、ゆっくり見て回れるのが特徴だよ。にぎやかな観光施設とは違い、知的で静かな時間を過ごせる。大人っぽいデートや、ひとりでじっくり見たい人に向いているスポット。,/yagoto/y5-1.png,"/yagoto/y5-1.png,/yagoto/y5-2.png,/yagoto/y5-3.png",35.1341,136.9648,slow,TRUE,TRUE,無料,10:00-16:30/日月定休日,晴れ：落ち着いて展示を楽しめる|曇り：静かに見て回れる|雨：屋内施設なので快適,"知的で静かな空間,大人向けスポット"
天道・塩釜と坂道コース,yagoto,八事らしい坂道と街並みを楽しめるコース。歩きながら街の雰囲気を味わえる。,天童・塩竈周辺は、八事らしい坂道と住宅街が広がるエリア。高低差のある道が多く、歩くだけでも街の雰囲気を楽しめるよ。観光地ではない日常の景色が残っていて、落ち着いた散策に向いている！写真を撮りながら、ゆっくり歩きたい人にもおすすめ。,/yagoto/y6-1.png,"/yagoto/y6-1.png,/yagoto/y6-2.png,/yagoto/y6-3.png",35.1348,136.9672,active,FALSE,FALSE,無料,なし,晴れ：坂道と街並みを楽しめる|曇り：写真を撮りながら歩きやすい|雨：滑りやすく注意が必要,"八事らしい坂道,街歩きが楽しい"
八事裏山,yagoto,自然が多く、静かに歩ける裏山エリア。人が少なく、落ち着いた散策に向いている。,八事裏山は、八事エリアに残る自然豊かな散策スポットだよ。観光地として整備されすぎていない分、人が少なく、静かに歩けるのが魅力。木々に囲まれた道が続いていて、季節ごとの空気や緑の変化を感じながら歩ける！考え事をしたいときや、落ち着いた散策デート、ひとり時間にも向いている場所。,/yagoto/y7-1.png,"/yagoto/y7-1.png,/yagoto/y7-2.png,/yagoto/y7-3.png",35.1345,136.9711,active,FALSE,FALSE,なし,なし,晴れ；自然を感じながら気持ちよく散策できる|曇り：暑さが和らぎ、歩きやすい|雨：足元が悪くなりやすく不向き,"人が少なく静か,自然の中を歩ける"
D's cafe 853,yagoto,落ち着いた雰囲気のすごくおしゃれなカフェ。散策の休憩や、ゆっくり過ごしたいときにちょうどいい。,D’s cafe 853は、八事エリアにある落ち着いた雰囲気のカフェ。店内は静かで居心地がよく、散策の合間の休憩やゆっくり過ごしたいときに使いやすいよ。派手すぎない空間で、会話を楽しみたいときや、ひとりでのんびりしたい日にも向いているよ！,/yagoto/y8-1.png,"/yagoto/y8-1.png,/yagoto/y8-2.png,/yagoto/y8-3.png",35.1352,136.9699,cafe,TRUE,TRUE,1000〜2000円,10:00-16:00,晴れ：散策の合間に立ち寄りやすい|曇り：落ち着いてゆっくり過ごせる|雨：屋内で天気を気にせず利用できる',落ち着いた雰囲気ゆっくり過ごせる