name,area,description,detail,image_url,image_urls,lat,lon,tags,is_indoor,weather_ok,price,opening_hours,,weather_suitability,highlights
名古屋市科学館,fushimi,巨大なプラネタリウムが象徴的な、伏見を代表する知的スポット。,名古屋市科学館は、科学や宇宙をテーマにした展示が充実した体験型ミュージアム。中でも巨大な球体のプラネタリウムは街のランドマーク的存在となっているよ。観光だけでなく、学びや好奇心を刺激する場所として、子どもから大人まで幅広く親しまれているよ。,/fushimi/f1-1.png,"/fushimi/f1-1.png,/fushimi/f1-2.png,/fushimi/f1-3.png",35.1667,136.8994,active,TRUE,TRUE,一般800円/高校生・大学生500円/中学生以下無料,9:30-17:00/月定休日,,晴れ： 周辺の公園や外観も含めて立ち寄りやすい｜くもり： 屋内展示中心で快適に過ごせる｜雨： ほぼ屋内で完結し、天候の影響を受けにくい,"建物外観が写真映えする,伏見エリアの象徴的スポット"
御園座,fushimi,伝統とモダンが共存する名古屋の劇場で、歌舞伎や演劇を気軽に楽しめるスポット。,御園座は、名古屋の中心部にある歴史ある劇場で、歌舞伎や演劇、ミュージカルなど幅広い公演が行われているよ。外観は和の雰囲気があって写真映えする一方、館内は快適で初めてでも入りやすいのが魅力。公演の前後に周辺でごはんやカフェを楽しみやすい立地だよ。,/fushimi/f2-1.png,"/fushimi/f2-1.png,/fushimi/f2-2.png",35.1659,136.8989,active,TRUE,TRUE,なし,11:00-18:00,,晴れ： 建物外観や周辺の街並み散策が楽しめる｜くもり： 落ち着いた雰囲気で回遊しやすい｜雨： 屋外移動が必要なため、短時間利用向き,
白川公園,fushimi,美術館や科学館に囲まれた、都会の中の公園。,白川公園は、伏見エリアの文化施設に囲まれた緑豊かな公園。ベンチや広場があり、散歩や休憩に適しているよ。都会にありながら落ち着いた空気が流れ、回遊の途中で立ち寄りやすい場所だよ。,/fushimi/f3-1.png,"/fushimi/f3-1.png,/fushimi/f3-2.png",35.1662,136.8986,active,FALSE,FALSE,なし,なし,,晴れ： 緑と開放感を存分に楽しめる｜くもり： 暑さを避けながら散策しやすい｜雨： 屋外中心のため、利用は控えめが無難,"緑と建築の対比がきれい,伏見エリアの休憩スポット"
名古屋市美術館,fushimi,建築そのものも楽しめる、伏見の文化施設。,名古屋市美術館は、現代的で無機質な建築が印象的な美術館。展示だけでなく、外観や空間構成も含めて楽しむことができるよ。白川公園と一体となった立地で、伏見らしい文化的雰囲気を感じられるのがむずしかいい,/fushimi/f4-1.png,"/fushimi/f4-1.png,/fushimi/f4-2.png",35.1662,136.8988,alone,TRUE,TRUE,一般300円/高校生・大学生200円/中学生以下無料,9:30-17:00/月定休日,,晴れ： 建築と公園を含めて楽しめる｜くもり： 静かな雰囲気で鑑賞に集中しやすい|雨： 屋内鑑賞が中心で、天候の影響が少ない,"外観が大人っぽく映える,科学館とセットで回れる"
喫茶七番,fushimi,静かに過ごせる、伏見の老舗喫茶。,喫茶七番は、昔ながらの落ち着いた雰囲気を残す喫茶店。派手さはないが、伏見で働く人や地元の人に長く親しまれているよ。観光地とは違う、日常の伏見を感じられる場所だよ。,/fushimi/f5-1.png,"/fushimi/f5-1.png,/fushimi/f5-2.png,/fushimi/f5-3.png,",35.1688,136.9001,eat,TRUE,TRUE,1-1000円,7:30-18:00/土日8:00-18:00,,晴れ： 散策途中の休憩スポットとして使いやすい｜くもり： 落ち着いた店内でゆっくり過ごせる｜雨： 屋内利用が中心で、雨の日も問題なく利用可,"地元感が強い,静かに休憩できる"
納屋橋（なやばし）,fushimi,川と街が交わる、伏見と栄をつなぐ橋。,納屋橋は、堀川に架かる橋で、伏見と栄を結ぶ中間地点に位置するよ。昼は落ち着いた街の景色、夜はライトや街明かりが水面に映る表情を楽しめるよ。回遊ルートのアクセントとして使いやすいスポット。,/fushimi/f6-1.png,"/fushimi/f6-1.png,/fushimi/f6-2.png,/fushimi/f6-3.png,",35.1696,136.9008,cafe,FALSE,FALSE,なし,なし,,晴れ： 川沿いの景色と街歩きを楽しめる｜くもり： 光が柔らかく写真が撮りやすい｜雨： 足元が滑りやすく、回遊性は下がる,"夜景が映える,エリア同士をつなぐ場所"
DAYDAY seoul nagoya,fushimi,韓国ソウルの空気感を楽しめる、感度高めカフェ。,DAYDAY seoul nagoyaは、韓国・ソウルのカフェ文化を感じられる空間づくりが特徴のカフェ。内装やメニューに統一感があり、写真を撮りたくなる雰囲気が魅力。観光向けというより、日常の中で少し特別感を味わえる場所として若い世代に人気だよ。,/fushimi/f7-1.png,"/fushimi/f7-1.png,/fushimi/f7-2.png,/fushimi/f7-3.png,",35.1691,136.9007,cafe,TRUE,TRUE,1000-2000円,11:00-18:30/木定休日,,晴れ： 外出ついでに立ち寄りやすい｜くもり： 店内中心で快適に過ごせる｜雨： 屋内完結型のため、雨天でも利用しやすい,"韓国っぽいミニマル空間で写真が映える,栄・伏見エリアの回遊途中に立ち寄りやすい"
wiik coffee,fushimi,静かな場所に佇む、感度の高い韓国風カフェ。,wiik coffeeは、栄エリアのビル2階にある隠れ家的なカフェ。大通りから少し離れた場所にあり、落ち着いた空気の中でゆっくり過ごすことができるよ。内装はシンプルで統一感があり、流行を取り入れながらも主張しすぎない雰囲気が特徴。,/fushimi/f8-1.png,"/fushimi/f8-1.png,/fushimi/f8-2.png,/fushimi/f8-3.png,",35.1636,136.8970387,cafe,TRUE,TRUE,1000-2000円,11:00-18:00/土日11:00-19:00/木定休日,,晴れ： 街歩きの途中に入りやすい｜くもり： 静かな環境で長居しやすい｜雨： 屋内利用が中心で、天候の影響が少ない,"落ち着いた時間を過ごせる,内装とスイーツの雰囲気が揃っていて、映える"
Cafe Bloeman,fushimi,夢みたいな空間で、可愛いスイーツとまったり時間を楽しむカフェ。,納屋橋エリアの「アミティエ錦第一ビル」2階にオープンしたカフェ。店内はピンクや白を基調としたガーリーな世界観で、リボン付きショートケーキやリボンパンなど、見た目にも楽しいスイーツが揃ってるよ。写真撮影や“推し活”にも使われていて、日常の延長にちょっと特別感を添えたい時にぴったりだよ。,/fushimi/f9-1.png,"/fushimi/f9-1.png,/fushimi/f9-2.png,",35.1703,136.8982,bias,TRUE,TRUE,1000-2000円,11:00-20:00/火定休日,,晴れ： 外出ついでに立ち寄れる｜くもり： 店内の世界観を落ち着いて楽しめる｜雨： 完全屋内型で、雨の日でも安心して利用可能,"ピンクと白のガーリー空間 が写真映え（スイーツや店内と相性◎）,「推し活」文化と親和性高いメニュー で、撮影や友達との時間にも使える"